Stop,On,Off,Long,Lat
Wallis Hall E/Light Rail,86.63,63.11,-80.73495483,35.304245
Student Union W,88.82,85.03,-80.73345184,35.30813217
Levine Hall W,33.66,74.11,-80.73303986,35.3029
Fretwell S,63.98,65.37,-80.72815704,35.30696487
Hunt Hall,85.72,98.96,-80.7329483,35.31174851